{"apiKey":"90fd4587554469b1f15b4f2e73e76180ceaf86853e1bc0c4","deliveryMin":10.00,"deliveryPrice":2.00,"logoUrl":"https://eatstreet-static.s3.amazonaws.com/assets/images/restaurant_logos/street-eating-america-39386_1482357645693.png","name":"Street Eating America","streetAddress":"316 W Washington Ave #725","city":"Madisonn","state":"WI","zip":"53703","foodTypes":["american"],"phone":"(608) 535-1051","latitude":43.073,"longitude":-89.388,"minFreeDelivery":-1.0000,"taxRate":0.0600,"acceptsCash":true,"acceptsCard":true,"offersPickup":true,"offersDelivery":true,"isTestRestaurant":true,"minWaitTime":35,"maxWaitTime":50,"open":true,"url":"https://eatstreet.com/madison-wi/restaurants/street-eating-america","hours":{"Monday":["12:00 AM - 12:00 AM"]},"timezone":"US/Central"}
{"apiKey":"90fd4587554469b1f15b4f2e73e76180ceaf86853e1bc0c4","deliveryMin":10.00,"deliveryPrice":2.00,"logoUrl":"https://eatstreet-static.s3.amazonaws.com/assets/images/restaurant_logos/street-eating-america-39386_1482357645693.png","name":"Street Eating America","streetAddress":"316 W Washington Ave #725","city":"Madisonn","state":"WI","zip":"53703","foodTypes":["american"],"phone":"(608) 535-1051","latitude":43.073,"longitude":-89.388,"minFreeDelivery":-1.0000,"taxRate":0.0600,"acceptsCash":true,"acceptsCard":true,"offersPickup":true,"offersDelivery":true,"isTestRestaurant":true,"minWaitTime":35,"maxWaitTime":50,"open":true,"url":"https://eatstreet.com/madison-wi/restaurants/street-eating-america","hours":{"Monday":["12:00 AM - 12:00 AM"]},"timezone":"US/Central"}
{"apiKey":"90fd4587554469b1459c89af9c680205570e91b09733ca5b","deliveryMin":0.00,"deliveryPrice":0.00,"logoUrl":"https://eatstreet-static.s3.amazonaws.com/assets/images/restaurant_logos/street-eating-madison-358_1443198279227.png","name":"Street Eating JemMin McKanMob Jappa","streetAddress":"","city":"Madison","state":"WI","zip":"53703","foodTypes":["american"],"phone":"(608) 535-1051","latitude":43.072901,"longitude":-89.395752,"minFreeDelivery":-1.0000,"taxRate":0.0010,"acceptsCash":true,"acceptsCard":true,"offersPickup":true,"offersDelivery":true,"isTestRestaurant":true,"minWaitTime":35,"maxWaitTime":50,"open":true,"url":"https://eatstreet.com/madison-wi/restaurants/kappa","hours":{"Monday":["2:00 AM - 12:00 AM"],"Thursday":["10:00 AM - 12:00 AM"]},"timezone":"US/Central"}
{"apiKey":"90fd4587554469b1f15b4f2e73e761809f4b4bcca52eedca","deliveryMin":5.00,"deliveryPrice":1.00,"logoUrl":"https://eatstreet-static.s3.amazonaws.com/assets/images/restaurant_logos/street-eating-madison-358_1443198279227.png","name":"Street Eating Madison - 3 Towers","streetAddress":"316 West Washington Avenue","city":"Madison","state":"WI","zip":"53703","foodTypes":["american"],"phone":"(608) 535-1051","latitude":43.072901,"longitude":-89.395752,"minFreeDelivery":-1.0000,"taxRate":0.0010,"acceptsCash":true,"acceptsCard":true,"offersPickup":true,"offersDelivery":true,"isTestRestaurant":true,"minWaitTime":30,"maxWaitTime":45,"open":true,"url":"https://eatstreet.com/madison-wi/restaurants/tablet2","hours":{"Monday":["12:00 AM - 11:00 PM"],"Saturday":["12:00 AM - 11:00 PM"],"Sunday":["12:00 AM - 11:00 PM"],"Wednesday":["12:00 AM - 11:00 PM"],"Tuesday":["12:00 AM - 11:00 PM"],"Friday":["12:00 AM - 11:00 PM"],"Thursday":["12:00 AM - 11:00 PM"]},"timezone":"US/Central"}
